[
  {
    "id": "1",
    "name": "Café De Oranje Leeuw",
    "address": "Leidseplein 12, Amsterdam",
    "city": "Amsterdam",
    "lat": 52.3638,
    "lng": 4.8828,
    "screens": 4,
    "hasTerrace": true,
    "hasLargeScreen": true,
    "openHour": 11,
    "closeHour": 2
  },
  {
    "id": "2",
    "name": "Proeflokaal De Jordaan",
    "address": "Westerstraat 22, Amsterdam",
    "city": "Amsterdam",
    "lat": 52.3746,
    "lng": 4.8804,
    "screens": 2,
    "hasTerrace": false,
    "hasLargeScreen": false,
    "openHour": 14,
    "closeHour": 1
  },
  {
    "id": "3",
    "name": "Grand Café Neude",
    "address": "Neude 11, Utrecht",
    "city": "Utrecht",
    "lat": 52.0918,
    "lng": 5.1178,
    "screens": 3,
    "hasTerrace": true,
    "hasLargeScreen": true,
    "openHour": 10,
    "closeHour": 2
  },
  {
    "id": "4",
    "name": "Blaak Sports Café",
    "address": "Blaak 40, Rotterdam",
    "city": "Rotterdam",
    "lat": 51.9202,
    "lng": 4.4868,
    "screens": 6,
    "hasTerrace": false,
    "hasLargeScreen": true,
    "openHour": 12,
    "closeHour": 3
  },
  {
    "id": "5",
    "name": "De Witte Leeuw",
    "address": "Witte de Withstraat 55, Rotterdam",
    "city": "Rotterdam",
    "lat": 51.9165,
    "lng": 4.4691,
    "screens": 2,
    "hasTerrace": true,
    "hasLargeScreen": false,
    "openHour": 16,
    "closeHour": 1
  },
  {
    "id": "6",
    "name": "Mossel & Gin",
    "address": "Gosschalklaan 12, Amsterdam",
    "city": "Amsterdam",
    "lat": 52.3893,
    "lng": 4.8634,
    "screens": 3,
    "hasTerrace": true,
    "hasLargeScreen": true,
    "openHour": 12,
    "closeHour": 23
  },
  {
    "id": "7",
    "name": "Bar Bukowski",
    "address": "Oosterpark 10, Amsterdam",
    "city": "Amsterdam",
    "lat": 52.3598,
    "lng": 4.9219,
    "screens": 5,
    "hasTerrace": true,
    "hasLargeScreen": true,
    "openHour": 11,
    "closeHour": 1
  },
  {
    "id": "8",
    "name": "Café Thijssen",
    "address": "Brouwersgracht 107, Amsterdam",
    "city": "Amsterdam",
    "lat": 52.3804,
    "lng": 4.8858,
    "screens": 2,
    "hasTerrace": true,
    "hasLargeScreen": false,
    "openHour": 11,
    "closeHour": 1
  },
  {
    "id": "9",
    "name": "Café de Walvis",
    "address": "Spaarndammerstraat 516, Amsterdam",
    "city": "Amsterdam",
    "lat": 52.3940,
    "lng": 4.8667,
    "screens": 3,
    "hasTerrace": true,
    "hasLargeScreen": false,
    "openHour": 11,
    "closeHour": 1
  },
  {
    "id": "10",
    "name": "Panenka",
    "address": "Eendrachtsweg 25, Rotterdam",
    "city": "Rotterdam",
    "lat": 51.9227,
    "lng": 4.4626,
    "screens": 8,
    "hasTerrace": false,
    "hasLargeScreen": true,
    "openHour": 15,
    "closeHour": 1
  },
  {
    "id": "11",
    "name": "Rotown",
    "address": "Nieuwe Binnenweg 19, Rotterdam",
    "city": "Rotterdam",
    "lat": 51.9153,
    "lng": 4.4700,
    "screens": 3,
    "hasTerrace": true,
    "hasLargeScreen": true,
    "openHour": 12,
    "closeHour": 2
  },
  {
    "id": "12",
    "name": "Hollywood Sportsbar",
    "address": "Cor Kieboomplein 513, Rotterdam",
    "city": "Rotterdam",
    "lat": 51.8986,
    "lng": 4.5388,
    "screens": 40,
    "hasTerrace": false,
    "hasLargeScreen": true,
    "openHour": 12,
    "closeHour": 2
  },
  {
    "id": "13",
    "name": "Café Luden",
    "address": "Plein 6-7, Den Haag",
    "city": "Den Haag",
    "lat": 52.0784,
    "lng": 4.3135,
    "screens": 4,
    "hasTerrace": true,
    "hasLargeScreen": true,
    "openHour": 10,
    "closeHour": 1
  },
  {
    "id": "14",
    "name": "De Zwarte Ruiter",
    "address": "Grote Markt 27, Den Haag",
    "city": "Den Haag",
    "lat": 52.0764,
    "lng": 4.3148,
    "screens": 5,
    "hasTerrace": true,
    "hasLargeScreen": true,
    "openHour": 11,
    "closeHour": 2
  },
  {
    "id": "15",
    "name": "Bar Club 188",
    "address": "Laan van Nieuw Oost-Indië 188, Den Haag",
    "city": "Den Haag",
    "lat": 52.0748,
    "lng": 4.3360,
    "screens": 6,
    "hasTerrace": false,
    "hasLargeScreen": true,
    "openHour": 15,
    "closeHour": 2
  },
  {
    "id": "16",
    "name": "Block & Barrels",
    "address": "Hoogstraatje 3-5, Groningen",
    "city": "Groningen",
    "lat": 53.2153,
    "lng": 6.5690,
    "screens": 4,
    "hasTerrace": true,
    "hasLargeScreen": true,
    "openHour": 11,
    "closeHour": 2
  },
  {
    "id": "17",
    "name": "The Dog's Bollocks",
    "address": "Oude Boteringestraat 17, Groningen",
    "city": "Groningen",
    "lat": 53.2198,
    "lng": 6.5671,
    "screens": 6,
    "hasTerrace": true,
    "hasLargeScreen": false,
    "openHour": 10,
    "closeHour": 2
  },
  {
    "id": "18",
    "name": "DOT",
    "address": "Vrydemalaan 2, Groningen",
    "city": "Groningen",
    "lat": 53.2133,
    "lng": 6.5589,
    "screens": 1,
    "hasTerrace": false,
    "hasLargeScreen": true,
    "openHour": 18,
    "closeHour": 1
  },
  {
    "id": "19",
    "name": "'t Gat van Groningen",
    "address": "Poelestraat 51, Groningen",
    "city": "Groningen",
    "lat": 53.2155,
    "lng": 6.5672,
    "screens": 5,
    "hasTerrace": false,
    "hasLargeScreen": false,
    "openHour": 14,
    "closeHour": 4
  },
  {
    "id": "20",
    "name": "Chaplin's Pub",
    "address": "Gedempte Zuiderdiep 73, Groningen",
    "city": "Groningen",
    "lat": 53.2110,
    "lng": 6.5671,
    "screens": 4,
    "hasTerrace": true,
    "hasLargeScreen": false,
    "openHour": 12,
    "closeHour": 2
  },
  {
    "id": "21",
    "name": "Grand Café De Brass",
    "address": "Nieuwestad 71, Leeuwarden",
    "city": "Leeuwarden",
    "lat": 53.2013,
    "lng": 5.7908,
    "screens": 4,
    "hasTerrace": true,
    "hasLargeScreen": true,
    "openHour": 10,
    "closeHour": 1
  },
  {
    "id": "22",
    "name": "De Dikke van Dale",
    "address": "Nieuwestad 69, Leeuwarden",
    "city": "Leeuwarden",
    "lat": 53.2012,
    "lng": 5.7906,
    "screens": 3,
    "hasTerrace": true,
    "hasLargeScreen": true,
    "openHour": 10,
    "closeHour": 1
  },
  {
    "id": "23",
    "name": "Speciaalbier Café De Markies",
    "address": "Groot Schavernek 19, Leeuwarden",
    "city": "Leeuwarden",
    "lat": 53.2019,
    "lng": 5.7929,
    "screens": 2,
    "hasTerrace": false,
    "hasLargeScreen": false,
    "openHour": 16,
    "closeHour": 1
  },
  {
    "id": "24",
    "name": "The Referee",
    "address": "Kamperstraat 33, Zwolle",
    "city": "Zwolle",
    "lat": 52.5138,
    "lng": 6.0966,
    "screens": 9,
    "hasTerrace": false,
    "hasLargeScreen": true,
    "openHour": 16,
    "closeHour": 2
  },
  {
    "id": "25",
    "name": "De Drie Gezusters",
    "address": "Molenstraat 79, Nijmegen",
    "city": "Nijmegen",
    "lat": 51.8476,
    "lng": 5.8654,
    "screens": 5,
    "hasTerrace": true,
    "hasLargeScreen": true,
    "openHour": 11,
    "closeHour": 2
  },
  {
    "id": "26",
    "name": "Café van Ouds",
    "address": "Augustijnenstraat 33, Nijmegen",
    "city": "Nijmegen",
    "lat": 51.8473,
    "lng": 5.8636,
    "screens": 3,
    "hasTerrace": true,
    "hasLargeScreen": false,
    "openHour": 12,
    "closeHour": 1
  },
  {
    "id": "27",
    "name": "Poolcafé Hart van Utrecht",
    "address": "Ganzenmarkt 16B, Utrecht",
    "city": "Utrecht",
    "lat": 52.0910,
    "lng": 5.1188,
    "screens": 11,
    "hasTerrace": false,
    "hasLargeScreen": true,
    "openHour": 12,
    "closeHour": 2
  },
  {
    "id": "28",
    "name": "Café Weerdzicht",
    "address": "Oudegracht 1, Utrecht",
    "city": "Utrecht",
    "lat": 52.0954,
    "lng": 5.1152,
    "screens": 3,
    "hasTerrace": true,
    "hasLargeScreen": false,
    "openHour": 11,
    "closeHour": 1
  },
  {
    "id": "29",
    "name": "The Fiddler",
    "address": "Riviervismarkt 1, Den Haag",
    "city": "Den Haag",
    "lat": 52.0762,
    "lng": 4.3141,
    "screens": 9,
    "hasTerrace": false,
    "hasLargeScreen": true,
    "openHour": 12,
    "closeHour": 1
  },
  {
    "id": "30",
    "name": "Poolcafé Delfshaven",
    "address": "Aelbrechtskolk 45B, Rotterdam",
    "city": "Rotterdam",
    "lat": 51.9117,
    "lng": 4.4588,
    "screens": 4,
    "hasTerrace": true,
    "hasLargeScreen": false,
    "openHour": 12,
    "closeHour": 2
  },
  {
    "id": "31",
    "name": "Café Bommel",
    "address": "Markt 85, Middelburg",
    "city": "Middelburg",
    "lat": 51.4990,
    "lng": 3.6145,
    "screens": 3,
    "hasTerrace": true,
    "hasLargeScreen": false,
    "openHour": 10,
    "closeHour": 1
  },
  {
    "id": "32",
    "name": "Sportsbar Dugout",
    "address": "Stratumseind 58, Eindhoven",
    "city": "Eindhoven",
    "lat": 51.4346,
    "lng": 5.4750,
    "screens": 12,
    "hasTerrace": false,
    "hasLargeScreen": true,
    "openHour": 15,
    "closeHour": 2
  },
  {
    "id": "33",
    "name": "Stadscafé Spijker",
    "address": "Stratumseind 15-21, Eindhoven",
    "city": "Eindhoven",
    "lat": 51.4349,
    "lng": 5.4742,
    "screens": 4,
    "hasTerrace": true,
    "hasLargeScreen": false,
    "openHour": 11,
    "closeHour": 2
  },
  {
    "id": "34",
    "name": "Café Forum",
    "address": "Sint Pieterstraat 4, Maastricht",
    "city": "Maastricht",
    "lat": 50.8465,
    "lng": 5.6912,
    "screens": 4,
    "hasTerrace": true,
    "hasLargeScreen": false,
    "openHour": 11,
    "closeHour": 1
  }
]
